timestamp,acc.x,acc.y,acc.z,gyro.x,gyro.y,gyro.z,baro.asl,baro.temp,baro.pressure,stabilizer.roll,stabilizer.pitch,stabilizer.yaw,stabilizer.thrust,ctrltarget.roll,ctrltarget.pitch,ctrltarget.yaw,range.zrange
20101.75,-6.497786671388894e-05,0.003714288119226694,0.9990524053573608,0.06449797004461288,-0.03544551879167557,-0.059226226061582565,82.40333557128906,35.702972412109375,1006.1635131835938,0.04128069803118706,-0.07984302937984467,-0.045271262526512146,0.0,0.0,0.0,0.0,0
20105.76,-0.00047912978334352374,0.003766205394640565,0.9993393421173096,-0.038717158138751984,0.15854968130588531,-0.18105557560920715,82.40333557128906,35.702972412109375,1006.1635131835938,0.041402820497751236,-0.0803939625620842,-0.04599463567137718,0.0,0.0,0.0,0.0,0
20109.677,-0.0021718423813581467,0.0031753277871757746,0.9987177848815918,-0.0661100223660469,0.012805209495127201,0.014880439266562462,82.46348571777344,35.70193099975586,1006.1566162109375,0.0413627102971077,-0.08051598817110062,-0.0459347665309906,0.0,0.0,0.0,0.0,0
20113.641,-0.0020791832357645035,0.0019732050132006407,0.9985684752464294,0.06514833122491837,0.05234258249402046,0.10460112988948822,82.46348571777344,35.70193099975586,1006.1566162109375,0.04173881933093071,-0.0807868093252182,-0.04551604390144348,0.0,0.0,0.0,0.0,0
20117.646,-0.0018421884160488844,0.0014618388377130032,0.9988364577293396,0.0008422959945164621,-0.03633218631148338,0.008507540449500084,82.46348571777344,35.70193099975586,1006.1566162109375,0.04180997237563133,-0.0806824266910553,-0.04548202455043793,0.0,0.0,0.0,0.0,0
20121.568,-0.0014389436691999435,0.0014635124243795872,0.999177873134613,0.16535921394824982,-0.16306380927562714,-0.08720890432596207,82.46348571777344,35.70193099975586,1006.1566162109375,0.042538657784461975,-0.08003665506839752,-0.045831240713596344,0.0,0.0,0.0,0.0,0
20149.315,-0.0033856709487736225,0.0019100243225693703,1.0003435611724854,0.0807553231716156,0.3027881681919098,-0.03184401988983154,82.33771514892578,35.70083999633789,1006.1705932617188,0.04197236895561218,-0.08197715133428574,-0.046280305832624435,0.0,0.0,0.0,0.0,0
20153.278,-0.0018575933063402772,0.002093553077429533,1.0004857778549194,-0.012688342481851578,-0.12077730894088745,-0.0487360805273056,82.33771514892578,35.70083999633789,1006.1705932617188,0.04204588755965233,-0.08153554052114487,-0.04647543281316757,0.0,0.0,0.0,0.0,0
20157.284,-0.0016907243989408016,0.0017926336731761694,1.0012598037719727,0.11213324964046478,-0.04818971827626228,0.13627921044826508,82.33771514892578,35.70083999633789,1006.1705932617188,0.04259217530488968,-0.08136822283267975,-0.04593030735850334,0.0,0.0,0.0,0.0,0
20161.205,-0.002215270884335041,0.002503619994968176,1.0012969970703125,-0.18717865645885468,-0.018418194726109505,-0.0041408054530620575,82.33771514892578,35.70083999633789,1006.1705932617188,0.04200408235192299,-0.08136773109436035,-0.045946698635816574,0.0,0.0,0.0,0.0,0
20165.226,-0.0022927671670913696,0.0022014747373759747,1.0002479553222656,0.040325526148080826,-0.2910487949848175,0.18953834474086761,82.33771514892578,35.70083999633789,1006.1705932617188,0.042300816625356674,-0.08028704673051834,-0.045189209282398224,0.0,0.0,0.0,0.0,0
20169.142,-0.0018667300464585423,0.0008401896920986474,1.000097632408142,-0.13068079948425293,0.0017471960745751858,0.0792655348777771,82.26116943359375,35.70033645629883,1006.1793823242188,0.041788723319768906,-0.08033708482980728,-0.04487213119864464,0.0,0.0,0.0,0.0,0
20173.105,-0.002000521868467331,0.00034281937405467033,1.000163197517395,-0.046975601464509964,-0.07989345490932465,0.057436879724264145,82.26116943359375,35.70033645629883,1006.1793823242188,0.041566938161849976,-0.0800737589597702,-0.04464266076683998,0.0,0.0,0.0,0.0,0
20177.092,-0.001882305950857699,0.0005296226008795202,0.9987573027610779,-0.18262134492397308,0.5258573889732361,-0.11775258183479309,82.26116943359375,35.70033645629883,1006.1793823242188,0.04081897437572479,-0.08221571892499924,-0.045112188905477524,0.0,0.0,0.0,0.0,0
20181.024,-0.002090669237077236,0.001054437831044197,0.9982588887214661,-0.14387035369873047,-0.01764255203306675,0.02232324331998825,82.26116943359375,35.70033645629883,1006.1793823242188,0.04027581587433815,-0.08220618218183517,-0.04502289369702339,0.0,0.0,0.0,0.0,0
20208.773,-0.00039537050179205835,0.0023565199226140976,0.999395489692688,-0.2104305624961853,-0.001327887992374599,-0.20904399454593658,82.33771514892578,35.69884490966797,1006.171142578125,0.040605321526527405,-0.07911340892314911,-0.04708694666624069,0.0,0.0,0.0,0.0,0
20212.736,-0.0006943736807443202,0.0017777250614017248,0.9987961649894714,0.022768210619688034,0.07861551642417908,0.2537112832069397,82.33771514892578,35.69884490966797,1006.171142578125,0.040796127170324326,-0.07936514914035797,-0.04607174172997475,0.0,0.0,0.0,0.0,0
20216.733,-0.0020177126862108707,0.002147015416994691,0.9988124966621399,0.2345791608095169,0.0672324076294899,0.04754171893000603,82.33771514892578,35.69884490966797,1006.171142578125,0.04186633601784706,-0.07969172298908234,-0.04588119685649872,0.0,0.0,0.0,0.0,0
20220.663,-0.0023185519967228174,0.0025630479212850332,0.9992916584014893,-0.04166360944509506,-0.007236302364617586,0.1588708907365799,82.33771514892578,35.69884490966797,1006.171142578125,0.041868243366479874,-0.0797477662563324,-0.04524550214409828,0.0,0.0,0.0,0.0,0
20224.672,-0.0020113764330744743,0.0025719234254211187,0.9997723698616028,0.13234269618988037,-0.2642360031604767,0.2174045592546463,82.33771514892578,35.69884490966797,1006.171142578125,0.042567189782857895,-0.07875107228755951,-0.04437641426920891,0.0,0.0,0.0,0.0,0
20228.59,-0.0032297582365572453,0.002415973460301757,1.000465989112854,0.17723506689071655,-0.2938184142112732,-0.039603352546691895,82.28303527832031,35.69771957397461,1006.1771850585938,0.04342884197831154,-0.07774899899959564,-0.044535502791404724,0.0,0.0,0.0,0.0,0
20232.553,-0.00371209136210382,0.0023342398926615715,1.0006258487701416,-0.21994023025035858,0.030929680913686752,-0.000800465582869947,82.28303527832031,35.69771957397461,1006.1771850585938,0.04269317910075188,-0.07808664441108704,-0.04453841969370842,0.0,0.0,0.0,0.0,0
20236.558,-0.003007246181368828,0.002111828187480569,1.0009431838989258,0.09286481142044067,0.08600305765867233,0.06702138483524323,82.28303527832031,35.69771957397461,1006.1771850585938,0.043190013617277145,-0.07857922464609146,-0.044269904494285583,0.0,0.0,0.0,0.0,0
20240.48,-0.0031153664458543062,0.0015855437377467752,1.000870943069458,0.1509622484445572,0.034434910863637924,-0.046498481184244156,82.28303527832031,35.69771957397461,1006.1771850585938,0.04387002810835838,-0.07887554913759232,-0.04445568472146988,0.0,0.0,0.0,0.0,0
20244.491,-0.0036118044517934322,0.0012701465748250484,0.9999272227287292,0.07518412917852402,-0.08917246013879776,0.24904745817184448,82.28303527832031,35.69771957397461,1006.1771850585938,0.04421894997358322,-0.0787230134010315,-0.043459706008434296,0.0,0.0,0.0,0.0,0
20248.408,-0.0036489819176495075,0.00162914814427495,0.9995933771133423,-0.11074931174516678,0.18099062144756317,-0.17642845213413239,82.24475860595703,35.697998046875,1006.181640625,0.043853919953107834,-0.07965248823165894,-0.0441647507250309,0.0,0.0,0.0,0.0,0
20252.371,-0.0036693469155579805,0.0023872568272054195,0.9990240931510925,0.09531724452972412,0.10599523037672043,0.14333714544773102,82.24475860595703,35.697998046875,1006.181640625,0.04438457265496254,-0.08028256893157959,-0.04359086975455284,0.0,0.0,0.0,0.0,0
20256.367,-0.0034414073452353477,0.0033626307267695665,0.998968780040741,-0.045758433640003204,0.08802880346775055,-0.2841847836971283,82.24475860595703,35.697998046875,1006.181640625,0.044436439871788025,-0.08082069456577301,-0.04472700506448746,0.0,0.0,0.0,0.0,0
20260.299,-0.002591549651697278,0.0026760101318359375,0.9990596771240234,0.0212959423661232,0.253933310508728,0.1459237039089203,82.24475860595703,35.697998046875,1006.181640625,0.044696394354104996,-0.08194092661142349,-0.04414226859807968,0.0,0.0,0.0,0.0,0
20264.31,-0.0010247185127809644,0.0018308311700820923,0.9982274770736694,0.12137433886528015,0.22992338240146637,0.009605388157069683,82.24475860595703,35.697998046875,1006.181640625,0.045278701931238174,-0.08282207697629929,-0.0441029854118824,0.0,0.0,0.0,0.0,0
20268.226,-6.5319272835040465e-06,0.001074965693987906,0.9980006217956543,0.08143825829029083,0.24039708077907562,0.13689203560352325,82.22835540771484,35.698204040527344,1006.1837158203125,0.04563228040933609,-0.08365076780319214,-0.04355461522936821,0.0,0.0,0.0,0.0,0
20272.192,-9.679064532974735e-06,-0.00019919521582778543,0.9986540675163269,0.04377276077866554,0.022848468273878098,0.0218652430921793,82.22835540771484,35.698204040527344,1006.1837158203125,0.04571790620684624,-0.08361153304576874,-0.04346721991896629,0.0,0.0,0.0,0.0,0
20276.201,-0.0010882422793656588,-0.0009658070630393922,0.999561607837677,-0.019778603687882423,-0.1640351265668869,-0.18868975341320038,82.22835540771484,35.698204040527344,1006.1837158203125,0.045478273183107376,-0.08292575925588608,-0.04422272741794586,0.0,0.0,0.0,0.0,0
20280.125,-0.00221336935646832,-7.589476444991305e-05,0.9990358352661133,0.16442298889160156,-0.011799095198512077,0.1524411290884018,82.22835540771484,35.698204040527344,1006.1837158203125,0.04605873301625252,-0.08294897526502609,-0.04361311346292496,0.0,0.0,0.0,0.0,0
20284.131,-0.0026867578271776438,0.0015328770969063044,0.9977016448974609,-0.001892753061838448,0.04768681526184082,-0.03615691885352135,82.22835540771484,35.698204040527344,1006.1837158203125,0.04611847549676895,-0.08325314521789551,-0.04375749081373215,0.0,0.0,0.0,0.0,0
20288.045,-0.0034535094164311886,0.002410363173112273,0.9969760775566101,0.006752461194992065,-0.17110294103622437,-0.4066005051136017,82.20101928710938,35.698360443115234,1006.1866455078125,0.04629066213965416,-0.0827556625008583,-0.045384228229522705,0.0,0.0,0.0,0.0,0
20292.008,-0.002971727168187499,0.0026349667459726334,0.9977186918258667,0.1096675843000412,0.08452819287776947,0.21089307963848114,82.20101928710938,35.698360443115234,1006.1866455078125,0.04689812287688255,-0.083232082426548,-0.04454014077782631,0.0,0.0,0.0,0.0,0
20296.005,-0.0024521660525351763,0.0015455007087439299,0.9986734986305237,0.02837703935801983,-0.18753120303153992,0.0892258882522583,82.20101928710938,35.698360443115234,1006.1866455078125,0.047079358249902725,-0.0825762003660202,-0.044183745980262756,0.0,0.0,0.0,0.0,0
20299.936,-0.0023119256366044283,0.0009368584142066538,0.9998338222503662,0.0014876070199534297,-0.1461029201745987,-0.08442690223455429,82.20101928710938,35.698360443115234,1006.1866455078125,0.04709623381495476,-0.08207408338785172,-0.04452192410826683,0.0,0.0,0.0,0.0,0
20303.953,-0.001976007828488946,0.0008147117332555354,1.0003783702850342,-0.02588394470512867,0.07802645862102509,0.041909217834472656,82.20101928710938,35.698360443115234,1006.1866455078125,0.046993188560009,-0.08243533223867416,-0.04435402899980545,0.0,0.0,0.0,0.0,0
20307.865,-0.0011873336043208838,0.0002564453170634806,1.0003620386123657,0.03462407365441322,-0.1268077790737152,-0.14153075218200684,82.27757263183594,35.69737243652344,1006.1780395507812,0.04708055406808853,-0.08190861344337463,-0.04492063820362091,0.0,0.0,0.0,0.0,0
20311.827,-0.001244962215423584,-0.0011895152274519205,0.9999240040779114,-0.013035775162279606,0.11601097881793976,-0.16690535843372345,82.27757263183594,35.69737243652344,1006.1780395507812,0.04684555158019066,-0.08235608786344528,-0.04558814316987991,0.0,0.0,0.0,0.0,0
20315.833,-0.0016798092983663082,-0.0017294662538915873,1.0002083778381348,-0.011504882015287876,0.20004937052726746,-0.1975521296262741,82.27757263183594,35.69737243652344,1006.1780395507812,0.04656782001256943,-0.08317731320858002,-0.04637803137302399,0.0,0.0,0.0,0.0,0
20319.755,-0.0026151330675929785,-0.0006556734442710876,0.9996512532234192,-0.026816682890057564,-0.27470603585243225,-0.057517778128385544,82.27757263183594,35.69737243652344,1006.1780395507812,0.04632765054702759,-0.08218900114297867,-0.04660918936133385,0.0,0.0,0.0,0.0,0
20323.772,-0.0032518659718334675,0.0014551794156432152,1.000038981437683,0.025794442743062973,-0.3822127878665924,0.045527536422014236,82.27757263183594,35.69737243652344,1006.1780395507812,0.04649079591035843,-0.08083096146583557,-0.04642823338508606,0.0,0.0,0.0,0.0,0
20327.682,-0.0037164243403822184,0.002250408288091421,1.00063955783844,-0.1976165920495987,-0.2564731240272522,-0.03983867168426514,82.29397583007812,35.69662857055664,1006.1761474609375,0.04583171755075455,-0.08001849055290222,-0.0465882308781147,0.0,0.0,0.0,0.0,0
20331.646,-0.004000850021839142,0.002243023831397295,0.9998918771743774,0.05141569674015045,-0.18086007237434387,0.13070720434188843,82.29397583007812,35.69662857055664,1006.1761474609375,0.04617024585604668,-0.07953423261642456,-0.0460657924413681,0.0,0.0,0.0,0.0,0
20335.642,-0.0028758104890584946,0.0011663358891382813,0.9989259839057922,-0.1529162973165512,-0.2111988365650177,-0.01979195699095726,82.29397583007812,35.69662857055664,1006.1761474609375,0.045592300593853,-0.0788285881280899,-0.046145591884851456,0.0,0.0,0.0,0.0,0
20339.574,-0.0023806015960872173,0.0001732233358779922,0.9995325207710266,-0.04457858204841614,0.14275255799293518,0.11659572273492813,82.29397583007812,35.69662857055664,1006.1761474609375,0.045358989387750626,-0.07948963344097137,-0.04567883536219597,0.0,0.0,0.0,0.0,0
20343.59,-0.0017537429230287671,0.0007104573305696249,1.0004851818084717,-0.0622895285487175,-0.20818392932415009,0.14068591594696045,82.29397583007812,35.69662857055664,1006.1761474609375,0.04510413855314255,-0.07869357615709305,-0.04511675611138344,0.0,0.0,0.0,0.0,0
20347.501,-0.0018800891702994704,0.0015691451262682676,1.0006942749023438,-0.30450403690338135,-0.275704562664032,0.17209205031394958,82.27757263183594,35.6938362121582,1006.1780395507812,0.04395899176597595,-0.07764092832803726,-0.044429149478673935,0.0,0.0,0.0,0.0,0
20351.465,-0.0027604287024587393,0.0016244369326159358,1.001662015914917,-0.01994861662387848,-0.15131163597106934,-0.15300782024860382,82.27757263183594,35.6938362121582,1006.1780395507812,0.043956998735666275,-0.07716631144285202,-0.045041535049676895,0.0,0.0,0.0,0.0,0
20355.47,-0.0037039192393422127,0.001134800724685192,1.002176284790039,0.113479845225811,0.29640400409698486,-0.10037116706371307,82.27757263183594,35.6938362121582,1006.1780395507812,0.04444452002644539,-0.07856229692697525,-0.04544205963611603,0.0,0.0,0.0,0.0,0
20359.392,-0.0040779500268399715,0.0013157996581867337,1.0016932487487793,-0.14238609373569489,0.13666626811027527,0.09602078795433044,82.27757263183594,35.6938362121582,1006.1780395507812,0.04392534866929054,-0.07935263961553574,-0.04505748674273491,0.0,0.0,0.0,0.0,0
20363.408,-0.0032344411592930555,0.0024229141417890787,1.0002720355987549,-0.21464850008487701,-0.1133987084031105,-0.06846892088651657,82.27757263183594,35.6938362121582,1006.1780395507812,0.04321783408522606,-0.07906945794820786,-0.045331500470638275,0.0,0.0,0.0,0.0,0
20367.32,-0.003176829544827342,0.0032026104163378477,0.9989762306213379,0.009424474090337753,0.17359863221645355,0.11123587936162949,82.28851318359375,35.69508361816406,1006.1763305664062,0.043479956686496735,-0.07992544770240784,-0.04488571733236313,0.0,0.0,0.0,0.0,0
20371.283,-0.0033747360575944185,0.0038244081661105156,0.9990204572677612,0.24980640411376953,-0.14958380162715912,0.11381007730960846,82.28851318359375,35.69508361816406,1006.1763305664062,0.044759780168533325,-0.07950965315103531,-0.04443053901195526,0.0,0.0,0.0,0.0,0
20375.28,-0.0035368462558835745,0.0026759279426187277,0.9999074935913086,0.04487302154302597,-0.07131124287843704,0.052676908671855927,82.28851318359375,35.69508361816406,1006.1763305664062,0.04511277750134468,-0.07942115515470505,-0.04421981796622276,0.0,0.0,0.0,0.0,0
20379.215,-0.002901302184909582,0.002072918228805065,1.0002256631851196,-0.10149447619915009,0.13616183400154114,-0.1282263845205307,82.28851318359375,35.69508361816406,1006.1763305664062,0.04482385143637657,-0.08010275661945343,-0.04473213106393814,0.0,0.0,0.0,0.0,0
20383.244,-0.0027616803999990225,0.001946982927620411,1.0009812116622925,-0.1515500694513321,0.013416950590908527,0.08459210395812988,82.28851318359375,35.69508361816406,1006.1763305664062,0.044324781745672226,-0.08028047531843185,-0.044393572956323624,0.0,0.0,0.0,0.0,0
20387.139,-0.0028666905127465725,0.003064449643716216,1.0011998414993286,-0.07359763979911804,-0.045930683612823486,0.03714849799871445,82.33771514892578,35.692691802978516,1006.1710815429688,0.044239483773708344,-0.08023093640804291,-0.04424482583999634,0.0,0.0,0.0,0.0,0
20391.101,-0.0032804927323013544,0.0035589495673775673,0.9998427033424377,0.07386858761310577,0.2540493905544281,-0.058265041559934616,82.33771514892578,35.692691802978516,1006.1710815429688,0.044788964092731476,-0.08141546696424484,-0.044476740062236786,0.0,0.0,0.0,0.0,0
20395.107,-0.0038342492189258337,0.0025153353344649076,0.9991645216941833,-0.0945383831858635,0.08591687679290771,0.0014080418040975928,82.33771514892578,35.692691802978516,1006.1710815429688,0.04456956312060356,-0.08197808265686035,-0.044470615684986115,0.0,0.0,0.0,0.0,0
20399.029,-0.003930405247956514,0.001042086980305612,0.9987459778785706,0.16266833245754242,0.07608681917190552,0.16606275737285614,82.33771514892578,35.692691802978516,1006.1710815429688,0.045246291905641556,-0.08250897377729416,-0.04380608722567558,0.0,0.0,0.0,0.0,0
20403.05,-0.0038348997477442026,-0.00017721569747664034,0.997710108757019,-0.043801791965961456,0.3304468095302582,-0.3185209333896637,82.33771514892578,35.692691802978516,1006.1710815429688,0.04498225823044777,-0.08404625207185745,-0.04507925733923912,0.0,0.0,0.0,0.0,0
20406.956,-0.003064583521336317,0.0011488989694043994,0.9969173073768616,-0.03327135369181633,0.4513009786605835,0.02833443135023117,82.3814697265625,35.694217681884766,1006.166015625,0.04488370567560196,-0.08599205315113068,-0.04496445134282112,0.0,0.0,0.0,0.0,0
20410.92,-0.0019444391364231706,0.003033664310351014,0.9975171685218811,-0.032524749636650085,-0.06526929140090942,0.0009663902455940843,82.3814697265625,35.694217681884766,1006.166015625,0.044959813356399536,-0.08577363938093185,-0.04496047645807266,0.0,0.0,0.0,0.0,0
20414.916,-5.849406443303451e-05,0.004070081282407045,0.9982118606567383,0.011153414845466614,-0.264119416475296,0.07853243499994278,82.3814697265625,35.694217681884766,1006.166015625,0.045305173844099045,-0.08459131419658661,-0.0446467287838459,0.0,0.0,0.0,0.0,0
20418.848,0.0002690810360945761,0.004802057985216379,0.9991369843482971,-0.09868769347667694,-0.1382247805595398,-0.0037242944817990065,82.3814697265625,35.694217681884766,1006.166015625,0.045276377350091934,-0.08388329297304153,-0.044661518186330795,0.0,0.0,0.0,0.0,0
20422.866,-0.0002561029978096485,0.003945984877645969,0.9996920228004456,-0.13009364902973175,0.32774633169174194,0.18388248980045319,82.3814697265625,35.694217681884766,1006.166015625,0.04504504054784775,-0.08508103340864182,-0.04392452910542488,0.0,0.0,0.0,0.0,0
20426.775,-0.0007099608774296939,0.0021637161262333393,0.9994744658470154,0.08479076623916626,-0.17721615731716156,0.13145193457603455,82.25022888183594,35.69648742675781,1006.1808471679688,0.04551127552986145,-0.08430512994527817,-0.04339909553527832,0.0,0.0,0.0,0.0,0
20430.739,-0.00212892796844244,0.0022135276813060045,0.9990185499191284,0.14342649281024933,-0.15207138657569885,-0.0300994124263525,82.25022888183594,35.69648742675781,1006.1808471679688,0.046214982867240906,-0.08375989645719528,-0.04351978376507759,0.0,0.0,0.0,0.0,0
20434.744,-0.002794937463477254,0.0028157520573586226,0.9981956481933594,-0.09814007580280304,-0.13229195773601532,0.2703147530555725,82.25022888183594,35.69648742675781,1006.1808471679688,0.04600807651877403,-0.08335404843091965,-0.04243868216872215,0.0,0.0,0.0,0.0,0
20438.666,-0.003901237854734063,0.0026010009460151196,0.9984570145606995,-0.2385503500699997,-0.31875643134117126,-0.23779138922691345,82.25022888183594,35.69648742675781,1006.1808471679688,0.045217275619506836,-0.08230743557214737,-0.043390631675720215,0.0,0.0,0.0,0.0,0
20442.685,-0.004448104649782181,0.00258988281711936,0.9979842305183411,0.016774354502558708,0.037416793406009674,-0.03151921555399895,82.25022888183594,35.69648742675781,1006.1808471679688,0.045449335128068924,-0.08273153752088547,-0.04351634532213211,0.0,0.0,0.0,0.0,0
20446.594,-0.003810829482972622,0.001993199111893773,0.9972534775733948,0.074136883020401,0.19581958651542664,0.17738866806030273,82.3049087524414,35.69594955444336,1006.1744995117188,0.045857466757297516,-0.08372817188501358,-0.04280600696802139,0.0,0.0,0.0,0.0,0
20450.558,-0.0033525796607136726,0.0023482912220060825,0.9979898929595947,0.06517790257930756,-0.1625937521457672,0.12676216661930084,82.3049087524414,35.69594955444336,1006.1744995117188,0.04626104235649109,-0.08325272053480148,-0.042299266904592514,0.0,0.0,0.0,0.0,0
20454.553,-0.0028921449556946754,0.002724038204178214,0.9994745254516602,-0.03605296462774277,-0.07250095903873444,-0.32214128971099854,82.3049087524414,35.69594955444336,1006.1744995117188,0.046290282160043716,-0.08309643715620041,-0.043587807565927505,0.0,0.0,0.0,0.0,0
20458.486,-0.0013203914277255535,0.0023681516759097576,1.0008383989334106,-0.029242031276226044,-0.07993335276842117,0.024501526728272438,82.3049087524414,35.69594955444336,1006.1744995117188,0.04631609097123146,-0.08276701718568802,-0.043489858508110046,0.0,0.0,0.0,0.0,0
20462.496,-0.00041480016079731286,0.0012077627470716834,1.0010417699813843,0.04619768261909485,0.13188055157661438,-0.05172916129231453,82.3049087524414,35.69594955444336,1006.1744995117188,0.04653775691986084,-0.08320078998804092,-0.043696291744709015,0.0,0.0,0.0,0.0,0
20466.412,-0.001366081996820867,5.790977866126923e-06,1.0002200603485107,-0.001546857412904501,0.19882288575172424,-0.02272835187613964,82.42520904541016,35.69335174560547,1006.1608276367188,0.04645910486578941,-0.08398684859275818,-0.0437866635620594,0.0,0.0,0.0,0.0,0
20470.376,-0.002406044164672494,-0.0006567772943526506,0.9996973276138306,-0.05868099629878998,0.07468793541193008,-0.06185039132833481,82.42520904541016,35.69335174560547,1006.1608276367188,0.04609156772494316,-0.08437121659517288,-0.044034019112586975,0.0,0.0,0.0,0.0,0
20474.382,-0.003258754499256611,0.0005294922739267349,1.0001652240753174,-0.13215048611164093,0.003962406888604164,-0.009975493885576725,82.42520904541016,35.69335174560547,1006.1608276367188,0.04553888738155365,-0.08454998582601547,-0.04407394677400589,0.0,0.0,0.0,0.0,0
20478.303,-0.002894733566790819,0.0017926206346601248,0.9995635747909546,0.14253364503383636,-0.1651696413755417,0.03014146164059639,82.42520904541016,35.69335174560547,1006.1608276367188,0.0462009534239769,-0.08402128517627716,-0.04395377263426781,0.0,0.0,0.0,0.0,0
20482.316,-0.002006901428103447,0.00257312529720366,0.9987598657608032,0.08099398761987686,-0.2824550271034241,-0.3524048924446106,82.42520904541016,35.69335174560547,1006.1608276367188,0.046684738248586655,-0.0829467698931694,-0.045364074409008026,0.0,0.0,0.0,0.0,0
20486.234,-0.001496105920523405,0.002408491913229227,0.9986860156059265,-0.010404541157186031,0.2700561583042145,0.02904803305864334,82.33771514892578,35.692501068115234,1006.1705932617188,0.04678942635655403,-0.08402902632951736,-0.045246779918670654,0.0,0.0,0.0,0.0,0
20490.204,-0.0016301583964377642,0.002720504067838192,0.9984461665153503,-0.10553466528654099,0.19107407331466675,0.13558246195316315,82.33771514892578,35.692501068115234,1006.1705932617188,0.04654252156615257,-0.08480653911828995,-0.04470357298851013,0.0,0.0,0.0,0.0,0
20494.197,-0.001537615666165948,0.002968187676742673,0.9989635944366455,0.017504747956991196,-0.02164936438202858,0.06284047663211823,82.33771514892578,35.692501068115234,1006.1705932617188,0.04681014642119408,-0.08472654968500137,-0.044451989233493805,0.0,0.0,0.0,0.0,0
20498.122,-0.0007282764418050647,0.0023786763194948435,0.9997916221618652,-0.09934178739786148,-0.3901875615119934,-0.07452042400836945,82.33771514892578,35.692501068115234,1006.1705932617188,0.046555325388908386,-0.08310449123382568,-0.04475112631917,0.0,0.0,0.0,0.0,0
20502.134,0.00026768309180624783,0.001688883756287396,1.000619888305664,-0.0990607738494873,0.12749835848808289,-0.3508604168891907,82.33771514892578,35.692501068115234,1006.1705932617188,0.04623759910464287,-0.08345945179462433,-0.04615404084324837,0.0,0.0,0.0,0.0,0
20506.05,-0.00011768982221838087,0.0011062611592933536,1.000319004058838,-0.04814794287085533,0.07790602743625641,0.2446085512638092,82.34319305419922,35.69075012207031,1006.1704711914062,0.04607459530234337,-0.08364911377429962,-0.04517531394958496,0.0,0.0,0.0,0.0,0
20510.013,-0.0009046228951774538,0.0009350569453090429,1.0005944967269897,0.09825903177261353,-0.06822533905506134,0.040457721799612045,82.34319305419922,35.69075012207031,1006.1704711914062,0.04648071154952049,-0.08332782238721848,-0.04501368850469589,0.0,0.0,0.0,0.0,0
20514.019,-0.001267603482119739,0.00013640621909871697,1.0009493827819824,-0.12337750941514969,-0.27910715341567993,0.0040160417556762695,82.34319305419922,35.69075012207031,1006.1704711914062,0.04592685028910637,-0.0821993350982666,-0.044998615980148315,0.0,0.0,0.0,0.0,0
20517.941,-0.0009627742110751569,0.001102559850551188,0.99964439868927,-0.01648557558655739,-0.140519917011261,-0.20782671868801117,82.34319305419922,35.69075012207031,1006.1704711914062,0.04588810354471207,-0.08159828186035156,-0.04583033174276352,0.0,0.0,0.0,0.0,0
20521.956,-0.001648299628868699,0.0017433993052691221,0.9982934594154358,-0.038121547549963,0.10223191231489182,0.25289446115493774,82.34319305419922,35.69075012207031,1006.1704711914062,0.04582400247454643,-0.08202680200338364,-0.04481830075383186,0.0,0.0,0.0,0.0,0
20525.869,-0.002640815218910575,0.00115230493247509,0.9975457787513733,0.10810156911611557,-0.1025654673576355,0.06997456401586533,82.38693237304688,35.688323974609375,1006.1649169921875,0.04629010707139969,-0.08172901719808578,-0.04453868046402931,0.0,0.0,0.0,0.0,0
20529.832,-0.0025409129448235035,0.0011602748418226838,0.9981061220169067,-0.18802183866500854,0.24383138120174408,0.06260714679956436,82.38693237304688,35.688323974609375,1006.1649169921875,0.045571599155664444,-0.08280347287654877,-0.04428742825984955,0.0,0.0,0.0,0.0,0
20533.828,-0.0015316717326641083,0.0023867590352892876,0.9987717866897583,-0.15571436285972595,0.18432264029979706,0.18904288113117218,82.38693237304688,35.688323974609375,1006.1649169921875,0.045095767825841904,-0.08354686200618744,-0.043530452996492386,0.0,0.0,0.0,0.0,0
20537.76,-0.0006707332213409245,0.002728196093812585,0.9986763596534729,-0.10622123628854752,-0.10881076008081436,-0.12640485167503357,82.38693237304688,35.688323974609375,1006.1649169921875,0.04484792798757553,-0.0830434113740921,-0.044036153703927994,0.0,0.0,0.0,0.0,0
20541.776,-0.00044282531598582864,0.0030783903785049915,0.9989889860153198,-0.037846460938453674,0.10490364581346512,-0.19462360441684723,82.38693237304688,35.688323974609375,1006.1649169921875,0.044905368238687515,-0.08337226510047913,-0.044814012944698334,0.0,0.0,0.0,0.0,0
20545.687,-0.0014485964784398675,0.0026849147398024797,0.9992039799690247,-0.016986168920993805,0.08702202141284943,0.11606647819280624,82.50175476074219,35.6854133605957,1006.1521606445312,0.04501211643218994,-0.08371951431035995,-0.044349219650030136,0.0,0.0,0.0,0.0,0
20549.651,-0.002612352604046464,0.0019388764631003141,0.9996687769889832,0.20007285475730896,-0.10378848761320114,0.16281959414482117,82.50175476074219,35.6854133605957,1006.1521606445312,0.0459192618727684,-0.08341079205274582,-0.043698105961084366,0.0,0.0,0.0,0.0,0
20553.657,-0.003834301372990012,0.0003355539229232818,1.0002732276916504,-0.013893884606659412,0.2857944369316101,-0.05122966691851616,82.50175476074219,35.6854133605957,1006.1521606445312,0.04582202434539795,-0.08476685732603073,-0.04390217363834381,0.0,0.0,0.0,0.0,0
20557.578,-0.003848741762340069,8.944343426264822e-05,0.9996362924575806,-0.32621413469314575,0.07711409777402878,-0.24745377898216248,82.50175476074219,35.6854133605957,1006.1521606445312,0.044452130794525146,-0.08529099076986313,-0.0448918491601944,0.0,0.0,0.0,0.0,0
20561.596,-0.0034627076238393784,0.0007244539447128773,0.9993374347686768,-0.09881540387868881,0.005522435065358877,0.14298981428146362,82.50175476074219,35.6854133605957,1006.1521606445312,0.04405410215258598,-0.08549278974533081,-0.04431987553834915,0.0,0.0,0.0,0.0,0
20565.507,-0.0025992963928729296,0.0018733808537945151,0.9997118711471558,0.12542571127414703,0.08498245477676392,0.15558446943759918,82.31037902832031,35.688758850097656,1006.1742553710938,0.044658198952674866,-0.08593263477087021,-0.043697115033864975,0.0,0.0,0.0,0.0,0
20569.47,-0.0018613600404933095,0.002441435120999813,0.9995917677879333,-0.003196020144969225,0.020633095875382423,-0.02963942475616932,82.31037902832031,35.688758850097656,1006.1742553710938,0.044797416776418686,-0.08604896813631058,-0.043815381824970245,0.0,0.0,0.0,0.0,0
20573.466,-0.0015069016953930259,0.0018389845499768853,0.9995678663253784,-0.19642481207847595,-0.026914086192846298,-0.0060108075849711895,82.31037902832031,35.688758850097656,1006.1742553710938,0.04410885274410248,-0.08594337850809097,-0.043839357793331146,0.0,0.0,0.0,0.0,0
20577.398,-0.0017559881089255214,0.0010140839731320739,0.9991053938865662,-0.2608926296234131,0.09971588850021362,0.08174606412649155,82.31037902832031,35.688758850097656,1006.1742553710938,0.04308907687664032,-0.08636514842510223,-0.04351204261183739,0.0,0.0,0.0,0.0,0
20581.408,-0.002367380540817976,0.0007134651532396674,0.9988744854927063,-0.034539736807346344,0.19031959772109985,0.11481907218694687,82.31037902832031,35.688758850097656,1006.1742553710938,0.04294919967651367,-0.08720283210277557,-0.043052200227975845,0.0,0.0,0.0,0.0,0
20585.325,-0.0033352812752127647,0.0022109493147581816,0.9988482594490051,0.03245079144835472,0.2204158455133438,-0.21398809552192688,82.37599182128906,35.68572235107422,1006.1666259765625,0.04321178048849106,-0.08824794739484787,-0.043907281011343,0.0,0.0,0.0,0.0,0
20589.289,-0.003724069334566593,0.003410314442589879,0.9989081621170044,-0.10650546848773956,0.060819242149591446,-0.21674871444702148,82.37599182128906,35.68572235107422,1006.1666259765625,0.04302721098065376,-0.0886903926730156,-0.04477372020483017,0.0,0.0,0.0,0.0,0
20593.294,-0.0028639782685786486,0.0037630510050803423,0.9996431469917297,0.011523090302944183,-0.009241839870810509,-0.2992161810398102,82.37599182128906,35.68572235107422,1006.1666259765625,0.04334639385342598,-0.0887749046087265,-0.045970190316438675,0.0,0.0,0.0,0.0,0
20597.22,-0.0037065481301397085,0.004093312658369541,1.000161051750183,0.010412894189357758,0.05371074378490448,-0.44337284564971924,82.37599182128906,35.68572235107422,1006.1666259765625,0.043689556419849396,-0.089186891913414,-0.047743041068315506,0.0,0.0,0.0,0.0,0
20601.237,-0.00508747948333621,0.00341137801297009,1.000200867652893,-0.1170731782913208,0.1692233830690384,0.2974053621292114,82.37599182128906,35.68572235107422,1006.1666259765625,0.04346488043665886,-0.09018153697252274,-0.04655252397060394,0.0,0.0,0.0,0.0,0
20605.144,-0.005284549668431282,0.0013864999637007713,1.0003808736801147,-0.12612774968147278,-0.009771225973963737,0.2848338186740875,82.31584930419922,35.685672760009766,1006.17333984375,0.043020229786634445,-0.09047883003950119,-0.045413125306367874,0.0,0.0,0.0,0.0,0
20609.106,-0.004127970430999994,-7.926862599560991e-05,0.999880850315094,0.07011168450117111,-0.02705070562660694,-0.06470521539449692,82.31584930419922,35.685672760009766,1006.17333984375,0.04322584345936775,-0.09060326963663101,-0.04567215219140053,0.0,0.0,0.0,0.0,0
20613.103,-0.0025455597788095474,-0.0005792841548100114,1.0003069639205933,-0.08720003068447113,0.24794946610927582,0.11531491577625275,82.31584930419922,35.685672760009766,1006.17333984375,0.042757585644721985,-0.09167979657649994,-0.0452103391289711,0.0,0.0,0.0,0.0,0
20617.034,-0.0016055390005931258,-0.00047124031698331237,1.000440001487732,-0.1556677669286728,0.1108643189072609,0.21940097212791443,82.31584930419922,35.685672760009766,1006.17333984375,0.04202669858932495,-0.09212265908718109,-0.04433257877826691,0.0,0.0,0.0,0.0,0
20621.045,-0.0008383360109291971,-0.0006094616837799549,0.9991827011108398,-0.17017655074596405,-0.15820597112178802,-0.1359015554189682,82.31584930419922,35.685672760009766,1006.17333984375,0.041224028915166855,-0.09142383188009262,-0.044876839965581894,0.0,0.0,0.0,0.0,0
20624.962,-0.0009081763564608991,-0.0002122763398801908,0.9991276860237122,0.05946879833936691,-0.22926515340805054,-0.03962082043290138,82.27757263183594,35.68341827392578,1006.1775512695312,0.0413779616355896,-0.09044890105724335,-0.04503612220287323,0.0,0.0,0.0,0.0,0
20628.925,-0.0020767883397638798,-9.32022066990612e-06,0.9988906979560852,0.1472761631011963,0.00102111860178411,0.15349125862121582,82.27757263183594,35.68341827392578,1006.1775512695312,0.0419025793671608,-0.09049899876117706,-0.04442225396633148,0.0,0.0,0.0,0.0,0
20632.931,-0.0023404029197990894,-6.187523831613362e-05,0.9996684789657593,-0.0011875623604282737,0.2048620730638504,-0.34942519664764404,82.27757263183594,35.68341827392578,1006.1775512695312,0.04182453453540802,-0.0913868397474289,-0.0458194725215435,0.0,0.0,0.0,0.0,0
20636.853,-0.0029289163649082184,0.00010314211249351501,1.0010638236999512,-0.16786138713359833,0.19645056128501892,-0.2767214775085449,82.27757263183594,35.68341827392578,1006.1775512695312,0.041095346212387085,-0.09229248017072678,-0.04692588746547699,0.0,0.0,0.0,0.0,0
20640.864,-0.002930319169536233,0.00045093154767528176,1.0011193752288818,-0.12430176883935928,-0.2569461464881897,0.1595323085784912,82.27757263183594,35.68341827392578,1006.1775512695312,0.04057593643665314,-0.09138808399438858,-0.04628852754831314,0.0,0.0,0.0,0.0,0
20644.78,-0.002334485063329339,0.0008855249034240842,1.0009969472885132,0.08540909737348557,-0.0020603681914508343,-0.09764964133501053,82.28851318359375,35.68172073364258,1006.176513671875,0.04093402996659279,-0.09144805371761322,-0.04667910188436508,0.0,0.0,0.0,0.0,0
20648.744,-0.0008427412249147892,9.64540959103033e-05,1.0002994537353516,-0.020223336294293404,0.15047357976436615,0.18428529798984528,82.28851318359375,35.68172073364258,1006.176513671875,0.04079917445778847,-0.09198025614023209,-0.04594162106513977,0.0,0.0,0.0,0.0,0
20652.739,-0.000203307528863661,0.000517757551278919,0.9992786645889282,-0.058641452342271805,-0.04392221197485924,-0.038215890526771545,82.28851318359375,35.68172073364258,1006.176513671875,0.040547773241996765,-0.09167937934398651,-0.046094633638858795,0.0,0.0,0.0,0.0,0
20656.671,-0.0016177365323528647,0.0004941860679537058,0.9997049570083618,-0.057990238070487976,0.09733550995588303,0.026818787679076195,82.28851318359375,35.68172073364258,1006.176513671875,0.040297627449035645,-0.0920700952410698,-0.045987118035554886,0.0,0.0,0.0,0.0,0
20660.683,-0.002094691153615713,0.0004733617533929646,1.0006388425827026,0.06561765819787979,0.01854109577834606,0.21936623752117157,82.28851318359375,35.68172073364258,1006.176513671875,0.04054161533713341,-0.09218858182430267,-0.04510962590575218,0.0,0.0,0.0,0.0,0
20664.599,-0.0024276217445731163,0.0015447279438376427,0.9999998807907104,-0.055367399007081985,-0.0004496207111515105,0.13958054780960083,82.2994384765625,35.68043518066406,1006.175537109375,0.04039818048477173,-0.09226167947053909,-0.04455118253827095,0.0,0.0,0.0,0.0,0
20668.563,-0.00254779402166605,0.003558394033461809,0.9995877742767334,0.016564374789595604,-0.09893618524074554,-0.18482980132102966,82.2994384765625,35.68043518066406,1006.175537109375,0.040723785758018494,-0.09195393323898315,-0.04529036208987236,0.0,0.0,0.0,0.0,0
20672.568,-0.002804461168125272,0.0032957890070974827,0.9989848732948303,-0.22251330316066742,0.2551257014274597,0.08964090794324875,82.2994384765625,35.68043518066406,1006.175537109375,0.04007064178586006,-0.0930807888507843,-0.04493069648742676,0.0,0.0,0.0,0.0,0
20676.49,-0.0021192554850131273,0.003289023647084832,0.9985873103141785,-0.08083070069551468,0.05565972998738289,0.05498286709189415,82.2994384765625,35.68043518066406,1006.175537109375,0.03998454660177231,-0.09334872663021088,-0.044710222631692886,0.0,0.0,0.0,0.0,0
20680.501,-0.0011376457987353206,0.004792912397533655,0.9986518621444702,0.14679040014743805,-0.11088663339614868,0.02685774676501751,82.2994384765625,35.68043518066406,1006.175537109375,0.040945764631032944,-0.09286331385374069,-0.044602490961551666,0.0,0.0,0.0,0.0,0
20684.417,0.0006883550668135285,0.004502943716943264,0.9996575117111206,0.11667869985103607,0.1904311329126358,-0.004064680077135563,82.34319305419922,35.679481506347656,1006.1702270507812,0.04175800457596779,-0.09341438114643097,-0.044617634266614914,0.0,0.0,0.0,0.0,0
20688.381,0.0009564973879605532,0.003682042472064495,0.9992281198501587,0.04241156950592995,-0.12330053746700287,-0.19243840873241425,82.34319305419922,35.679481506347656,1006.1702270507812,0.04219614714384079,-0.09269008785486221,-0.04538731276988983,0.0,0.0,0.0,0.0,0
20692.377,2.5555094907758757e-05,0.002282641362398863,0.9978218674659729,-0.0683957040309906,-0.24961228668689728,-0.32356032729148865,82.34319305419922,35.679481506347656,1006.1702270507812,0.04206252843141556,-0.09154818207025528,-0.04668205976486206,0.0,0.0,0.0,0.0,0
20696.308,-0.0005760598578490317,0.0023772448766976595,0.9974277019500732,0.0110315578058362,-0.10163187980651855,-0.010975758545100689,82.34319305419922,35.679481506347656,1006.1702270507812,0.042257554829120636,-0.09105174988508224,-0.04672602191567421,0.0,0.0,0.0,0.0,0
20700.32,-0.0010679712286219,0.00238625006750226,0.9976086020469666,0.1395987868309021,0.07676883041858673,0.36604562401771545,82.34319305419922,35.679481506347656,1006.1702270507812,0.042969733476638794,-0.09131084382534027,-0.04526137188076973,0.0,0.0,0.0,0.0,0
20704.238,-0.0016394681297242641,0.002977086929604411,0.9975181818008423,-0.11551772803068161,0.12915994226932526,0.20001842081546783,82.35411834716797,35.67988204956055,1006.1689453125,0.04271310940384865,-0.0918307825922966,-0.04446058347821236,0.0,0.0,0.0,0.0,0
20708.218,-0.0013992070453241467,0.0029598381370306015,0.9971706867218018,0.011820169165730476,0.18621794879436493,0.015124685131013393,82.35411834716797,35.67988204956055,1006.1689453125,0.04296359047293663,-0.09255613386631012,-0.0443991981446743,0.0,0.0,0.0,0.0,0
20712.215,-0.0019769505597651005,0.003096224507316947,0.9974541068077087,0.09896067529916763,-0.09535194933414459,-0.01832844316959381,82.35411834716797,35.67988204956055,1006.1689453125,0.043574366718530655,-0.09221039712429047,-0.044472455978393555,0.0,0.0,0.0,0.0,0
20716.127,-0.0025768005289137363,0.0026579697150737047,0.997927725315094,0.05512423813343048,-0.28802135586738586,-0.038904301822185516,82.35411834716797,35.67988204956055,1006.1689453125,0.043968647718429565,-0.09115155786275864,-0.04462867230176926,0.0,0.0,0.0,0.0,0
20720.139,-0.0024903081357479095,0.002301656873896718,0.9985637664794922,-0.05843394994735718,-0.015785343945026398,0.0958157479763031,82.35411834716797,35.67988204956055,1006.1689453125,0.043876342475414276,-0.0911712720990181,-0.04424522817134857,0.0,0.0,0.0,0.0,0
20724.054,-0.0016981338849291205,0.0010819685412570834,0.9990886449813843,-0.024261869490146637,0.25611504912376404,0.0776875913143158,82.32678985595703,35.67795944213867,1006.1724243164062,0.0438096709549427,-0.09220299124717712,-0.04393364489078522,0.0,0.0,0.0,0.0,0
20728.018,-0.0010719066485762596,0.0004100315854884684,0.9998478293418884,0.05299251154065132,0.022772420197725296,-0.22433210909366608,82.32678985595703,35.67795944213867,1006.1724243164062,0.043989017605781555,-0.09224691241979599,-0.04483095929026604,0.0,0.0,0.0,0.0,0
20732.014,6.62993552396074e-05,-0.00017531368939671665,1.0002957582473755,-0.08836971968412399,-0.16312842071056366,-0.03303588181734085,82.32678985595703,35.67795944213867,1006.1724243164062,0.043550651520490646,-0.09144594520330429,-0.04496374726295471,0.0,0.0,0.0,0.0,0
20735.946,0.0007136983913369477,0.0013324292376637459,1.000148057937622,0.14488832652568817,-0.32796669006347656,0.1458289921283722,82.32678985595703,35.67795944213867,1006.1724243164062,0.044184185564517975,-0.08992993831634521,-0.04438134282827377,0.0,0.0,0.0,0.0,0
20739.956,-8.505816367687657e-05,0.003060748800635338,0.9987632036209106,0.0663713738322258,0.11302582919597626,-0.18494516611099243,82.32678985595703,35.67795944213867,1006.1724243164062,0.044658027589321136,-0.0902477502822876,-0.04512043669819832,0.0,0.0,0.0,0.0,0
20743.873,7.157724758144468e-05,0.0025855847634375095,0.9979842901229858,-0.0022905904334038496,0.5039786696434021,0.05313540995121002,82.27757263183594,35.67762756347656,1006.1776123046875,0.04481491073966026,-0.09210862964391708,-0.04490606486797333,0.0,0.0,0.0,0.0,0
20747.838,0.0001755240373313427,0.0009212538716383278,0.997420072555542,-0.07896579802036285,0.03306979686021805,0.21852636337280273,82.27757263183594,35.67762756347656,1006.1776123046875,0.04451437294483185,-0.09207931160926819,-0.04403182864189148,0.0,0.0,0.0,0.0,0
20751.842,-0.0006293398910202086,0.0013878103345632553,0.997730016708374,-0.03673676401376724,-0.03583551570773125,0.15108327567577362,82.27757263183594,35.67762756347656,1006.1776123046875,0.04442526027560234,-0.09184864163398743,-0.043427519500255585,0.0,0.0,0.0,0.0,0
20755.764,-0.0010531380539759994,0.0023100953549146652,0.9984301924705505,-0.17335106432437897,0.3296574652194977,-0.15116766095161438,82.27757263183594,35.67762756347656,1006.1776123046875,0.043871767818927765,-0.09311472624540329,-0.044030942022800446,0.0,0.0,0.0,0.0,0
20759.774,4.995711788069457e-05,0.0025104559026658535,0.9990203380584717,-0.03767320513725281,-0.08365517854690552,-0.1771155148744583,82.27757263183594,35.67762756347656,1006.1776123046875,0.04387979954481125,-0.09263110905885696,-0.04473940655589104,0.0,0.0,0.0,0.0,0
20763.692,0.0006312688929028809,0.0018268157728016376,0.9991905689239502,0.013738567009568214,-0.2366458922624588,0.09882235527038574,82.19007873535156,35.67849349975586,1006.1878051757812,0.04403303191065788,-0.09148479998111725,-0.04434467852115631,0.0,0.0,0.0,0.0,0
20767.656,-7.565346459159628e-05,0.001980757573619485,0.9996777772903442,0.02241312712430954,-0.19879905879497528,-0.035915229469537735,82.19007873535156,35.67849349975586,1006.1878051757812,0.044233765453100204,-0.09055572003126144,-0.044488776475191116,0.0,0.0,0.0,0.0,0
20771.652,-0.0004281177243683487,0.0014610961079597473,0.9995577931404114,-0.01194775477051735,0.10544644296169281,-0.045636456459760666,82.19007873535156,35.67849349975586,1006.1878051757812,0.044249437749385834,-0.09087295085191727,-0.04467089846730232,0.0,0.0,0.0,0.0,0
20775.583,-0.0013337066629901528,0.0023167161270976067,0.9993639588356018,0.01173205953091383,0.35084640979766846,-0.15450628101825714,82.19007873535156,35.67849349975586,1006.1878051757812,0.04443695768713951,-0.09225041419267654,-0.0452876091003418,0.0,0.0,0.0,0.0,0
20779.593,-0.002598024206236005,0.0027125051710754633,0.9995812773704529,-0.006098143756389618,-0.08553971350193024,0.041285909712314606,82.19007873535156,35.67849349975586,1006.1878051757812,0.044590063393116,-0.09199999272823334,-0.04512244462966919,0.0,0.0,0.0,0.0,0
20783.511,-0.002491940511390567,0.0032471604645252228,0.9991267919540405,-0.0968388095498085,0.14966818690299988,0.2810860574245453,82.26663208007812,35.676918029785156,1006.1792602539062,0.04443027451634407,-0.09267736226320267,-0.04399726539850235,0.0,0.0,0.0,0.0,0
20787.474,-0.0022825736086815596,0.0023079642560333014,0.9982436299324036,0.04010290279984474,0.09666159749031067,-0.04982413724064827,82.26663208007812,35.676918029785156,1006.1792602539062,0.044731102883815765,-0.09312456846237183,-0.044196031987667084,0.0,0.0,0.0,0.0,0
20791.48,-0.0014100851258262992,0.0010055913589894772,0.9974838495254517,-0.014706713147461414,0.21288202702999115,-0.15514308214187622,82.26663208007812,35.676918029785156,1006.1792602539062,0.0446929894387722,-0.0939556136727333,-0.04481590539216995,0.0,0.0,0.0,0.0,0
20795.402,-0.0012808474712073803,0.0015852914657443762,0.9983360767364502,-0.08569638431072235,0.16573618352413177,0.09252988547086716,82.26663208007812,35.676918029785156,1006.1792602539062,0.044425319880247116,-0.09458478540182114,-0.04444514587521553,0.0,0.0,0.0,0.0,0
20799.412,-0.0015333691844716668,0.002639912301674485,1.0007981061935425,0.034198690205812454,-0.14155998826026917,0.08481729030609131,82.26663208007812,35.676918029785156,1006.1792602539062,0.044733043760061264,-0.09401053190231323,-0.04410603642463684,0.0,0.0,0.0,0.0,0
20803.33,-0.001681144000031054,0.0032843840308487415,1.0012032985687256,0.0007258424302563071,0.2819679379463196,-0.02606017328798771,82.22289276123047,35.67573928833008,1006.1839599609375,0.044964082539081573,-0.09513924270868301,-0.044209014624357224,0.0,0.0,0.0,0.0,0
20807.293,-0.001665899297222495,0.003071740735322237,1.0008347034454346,0.17198893427848816,-0.006775201298296452,0.17156794667243958,82.22289276123047,35.67573928833008,1006.1839599609375,0.04586190730333328,-0.0951131209731102,-0.0435224212706089,0.0,0.0,0.0,0.0,0
20811.297,-0.001369113801047206,0.002332874573767185,1.0000927448272705,0.19278423488140106,0.04590539634227753,0.4288163185119629,82.22289276123047,35.67573928833008,1006.1839599609375,0.04677625000476837,-0.09526942670345306,-0.04180676490068436,0.0,0.0,0.0,0.0,0
20815.229,-0.0006551679689437151,0.0014728856040164828,0.9997997283935547,-0.0959022268652916,0.17103779315948486,-0.09078467637300491,82.22289276123047,35.67573928833008,1006.1839599609375,0.04645279049873352,-0.09586136788129807,-0.042169246822595596,0.0,0.0,0.0,0.0,0
20819.238,-0.00114877347368747,0.0017321996856480837,1.0000038146972656,-0.08696584403514862,-0.08871148526668549,-0.0021830531768500805,82.22289276123047,35.67573928833008,1006.1839599609375,0.04618973284959793,-0.09546127915382385,-0.04217812791466713,0.0,0.0,0.0,0.0,0
20823.147,-0.002751672873273492,0.0007315134280361235,0.9986605644226074,-0.1068148985505104,-0.2927781045436859,0.13433681428432465,82.25022888183594,35.673744201660156,1006.1812133789062,0.045757733285427094,-0.09439343214035034,-0.041641730815172195,0.0,0.0,0.0,0.0,0
20827.111,-0.003927328623831272,0.0004940571961924434,0.9970771670341492,0.07641144841909409,0.040499601513147354,0.11198047548532486,82.25022888183594,35.673744201660156,1006.1812133789062,0.04603763669729233,-0.09476318210363388,-0.04119372367858887,0.0,0.0,0.0,0.0,0
20831.117,-0.004238537047058344,0.0009649802814237773,0.9965571165084839,-0.01884596422314644,0.02457120083272457,-0.16609695553779602,82.25022888183594,35.673744201660156,1006.1812133789062,0.04597719386219978,-0.09509822726249695,-0.0418580062687397,0.0,0.0,0.0,0.0,0
20835.039,-0.002793509280309081,0.0006412762450054288,0.9981588125228882,0.06705430895090103,-0.055423587560653687,0.17860917747020721,82.25022888183594,35.673744201660156,1006.1812133789062,0.04623311758041382,-0.09498096257448196,-0.04114377126097679,0.0,0.0,0.0,0.0,0
20839.049,-0.001289737643674016,0.0008793837041594088,0.9998906850814819,-0.14083881676197052,-0.47492438554763794,0.09719766676425934,82.25022888183594,35.673744201660156,1006.1812133789062,0.04567806050181389,-0.09305509179830551,-0.04075649753212929,0.0,0.0,0.0,0.0,0
20842.966,-6.233023304957896e-05,0.002450190018862486,0.9998294115066528,-0.021279215812683105,-0.2952590584754944,-0.0076463595032691956,82.21195220947266,35.67445755004883,1006.1854248046875,0.04574425145983696,-0.09173768013715744,-0.04078777879476547,0.0,0.0,0.0,0.0,0
20846.93,5.091480852570385e-05,0.0033352829050272703,0.9987489581108093,0.12159640341997147,0.2206587791442871,0.2704353928565979,82.21195220947266,35.67445755004883,1006.1854248046875,0.04646444320678711,-0.09246793389320374,-0.03970494866371155,0.0,0.0,0.0,0.0,0
20850.926,-0.00019572560267988592,0.0036789269652217627,0.9994497895240784,0.12890630960464478,0.045443762093782425,-0.06866928935050964,82.21195220947266,35.67445755004883,1006.1854248046875,0.04724157229065895,-0.09252195060253143,-0.03997905179858208,0.0,0.0,0.0,0.0,0
20854.858,-0.0008762503857724369,0.003846036270260811,0.9994810819625854,-0.10889891535043716,0.12588147819042206,-0.04488717392086983,82.21195220947266,35.67445755004883,1006.1854248046875,0.047081589698791504,-0.09295815229415894,-0.0401577390730381,0.0,0.0,0.0,0.0,0
20858.868,-0.003173280041664839,0.0027490928769111633,0.9996509552001953,0.04548674821853638,-0.21363896131515503,-0.21644918620586395,82.21195220947266,35.67445755004883,1006.1854248046875,0.04743849113583565,-0.09224888682365417,-0.04102395102381706,0.0,0.0,0.0,0.0,0
20862.786,-0.004539740737527609,0.0029120715335011482,0.9999112486839294,-0.058292027562856674,-0.07281582057476044,-0.0015007470501586795,82.18461608886719,35.675010681152344,1006.1887817382812,0.047395844012498856,-0.09222515672445297,-0.04102988913655281,0.0,0.0,0.0,0.0,0
20866.749,-0.004251834005117416,0.0026256197597831488,1.0002789497375488,-0.0026644442696124315,-0.21723832190036774,0.04885551705956459,82.18461608886719,35.675010681152344,1006.1887817382812,0.047549981623888016,-0.09159934520721436,-0.040834926068782806,0.0,0.0,0.0,0.0,0
20870.754,-0.003444185247644782,0.0015964751364663243,1.0011759996414185,-0.1654069572687149,-0.03144778311252594,0.035977523773908615,82.18461608886719,35.675010681152344,1006.1887817382812,0.04695917293429375,-0.09164180606603622,-0.04069100320339203,0.0,0.0,0.0,0.0,0
20874.676,-0.0020653472747653723,0.0004963563987985253,1.0013930797576904,-0.21740414202213287,-0.10156601667404175,-0.01482519879937172,82.18461608886719,35.675010681152344,1006.1887817382812,0.046061087399721146,-0.0912800207734108,-0.04075067490339279,0.0,0.0,0.0,0.0,0
20878.686,-0.0009944919729605317,0.00032199392444454134,1.0012863874435425,-0.01758912391960621,0.024453407153487206,-0.2182500660419464,82.18461608886719,35.675010681152344,1006.1887817382812,0.04594656825065613,-0.09132495522499084,-0.04162367060780525,0.0,0.0,0.0,0.0,0
20882.603,-0.0007975658518262208,0.0004295865655876696,1.000763177871704,-0.11730030179023743,0.2105097472667694,-0.07967203855514526,82.22835540771484,35.67430114746094,1006.18359375,0.045444056391716,-0.092093326151371,-0.04194174334406853,0.0,0.0,0.0,0.0,0
20886.567,-0.0009961717296391726,0.0016685385489836335,1.0017110109329224,-0.11679286509752274,0.13874031603336334,0.10475075244903564,82.22835540771484,35.67430114746094,1006.18359375,0.04505796357989311,-0.09259167313575745,-0.04152216389775276,0.0,0.0,0.0,0.0,0
20890.564,-0.0013389295199885964,0.002847560914233327,1.0010018348693848,0.12498033791780472,-0.43981537222862244,0.18354704976081848,82.22835540771484,35.67430114746094,1006.18359375,0.045747265219688416,-0.09081364423036575,-0.04078906774520874,0.0,0.0,0.0,0.0,0
20894.495,-0.0022864332422614098,0.0034725170116871595,1.0000653266906738,-0.02036900818347931,-0.2969708740711212,0.23771993815898895,82.22835540771484,35.67430114746094,1006.18359375,0.04591142386198044,-0.08969368040561676,-0.039838746190071106,0.0,0.0,0.0,0.0,0
20898.505,-0.004442933015525341,0.0034329318441450596,0.9992127418518066,0.07813186943531036,0.09535437822341919,-0.06853314489126205,82.22835540771484,35.67430114746094,1006.18359375,0.046464066952466965,-0.0903361365199089,-0.04011218622326851,0.0,0.0,0.0,0.0,0
20902.422,-0.004615322686731815,0.002771790139377117,0.9987294673919678,-0.16826312243938446,0.08395218849182129,-0.24789538979530334,82.28303527832031,35.67377853393555,1006.1774291992188,0.04596908763051033,-0.09094855934381485,-0.041103217750787735,0.0,0.0,0.0,0.0,0
20906.386,-0.0027904983144253492,0.0025173297617584467,0.9983700513839722,0.043740056455135345,0.03393089026212692,-0.08946048468351364,82.28303527832031,35.67377853393555,1006.1774291992188,0.04630083590745926,-0.09119465202093124,-0.04146070405840874,0.0,0.0,0.0,0.0,0
20910.393,-0.001466625020839274,0.0028085047379136086,0.9974704384803772,0.07834213227033615,0.36415958404541016,0.17094624042510986,82.28303527832031,35.67377853393555,1006.1774291992188,0.04679888114333153,-0.09263595938682556,-0.04077543690800667,0.0,0.0,0.0,0.0,0
20914.313,-0.0008480070391669869,0.0023782122880220413,0.9969439506530762,0.10915142297744751,-0.02316201664507389,0.17094187438488007,82.28303527832031,35.67377853393555,1006.1774291992188,0.04738028720021248,-0.09247475117444992,-0.040091510862112045,0.0,0.0,0.0,0.0,0
20918.327,-0.0011730535188689828,0.0016589873703196645,0.9969934225082397,0.10918696969747543,0.002847187453880906,0.024362837895751,82.28303527832031,35.67377853393555,1006.1774291992188,0.04789436236023903,-0.09244751185178757,-0.03999392315745354,0.0,0.0,0.0,0.0,0
20922.246,-0.002254666294902563,0.0012831453932449222,0.9984702467918396,-0.08429230749607086,-0.11139881610870361,0.1255144625902176,82.31037902832031,35.67338180541992,1006.1738891601562,0.047599922865629196,-0.09206251055002213,-0.0394921712577343,0.0,0.0,0.0,0.0,0
20926.207,-0.003215869888663292,0.0006794236833229661,1.0000596046447754,-0.2782002091407776,0.07840724289417267,-0.19617094099521637,82.31037902832031,35.67338180541992,1006.1738891601562,0.046473175287246704,-0.09252259135246277,-0.04027662053704262,0.0,0.0,0.0,0.0,0
20930.201,-0.004017089493572712,3.328163074911572e-05,1.000363826751709,0.18193455040454865,-0.008006882853806019,0.14655503630638123,82.31037902832031,35.67338180541992,1006.1738891601562,0.04713224619626999,-0.09270881116390228,-0.0396905392408371,0.0,0.0,0.0,0.0,0
20934.133,-0.004127013962715864,-0.0007018983014859259,0.9996229410171509,0.006950986571609974,0.028595512732863426,0.050073832273483276,82.31037902832031,35.67338180541992,1006.1738891601562,0.04702285677194595,-0.09305118024349213,-0.03949037939310074,0.0,0.0,0.0,0.0,0
20938.143,-0.003728340845555067,-0.00011010976595571265,0.9990297555923462,-0.07759325206279755,0.017972402274608612,-0.0690256878733635,82.31037902832031,35.67338180541992,1006.1738891601562,0.04662850499153137,-0.09331513196229935,-0.03976655751466751,0.0,0.0,0.0,0.0,0
20942.06,-0.0033936267718672752,0.0001884555967990309,0.9989822506904602,-0.050842415541410446,-0.14271868765354156,0.08005864918231964,82.36505889892578,35.67308807373047,1006.16748046875,0.04636991024017334,-0.09290724992752075,-0.0394468829035759,0.0,0.0,0.0,0.0,0
20946.024,-0.0025487709790468216,-0.00022775362594984472,0.999055802822113,0.027635617181658745,0.013163063675165176,-0.11553559452295303,82.36505889892578,35.67308807373047,1006.16748046875,0.046386491507291794,-0.0930454283952713,-0.039909135550260544,0.0,0.0,0.0,0.0,0
20950.029,-0.0012325179995968938,0.0014337332686409354,0.9990996718406677,-0.0437036007642746,0.04361235722899437,-0.09380826354026794,82.36505889892578,35.67308807373047,1006.16748046875,0.0462690107524395,-0.09318535029888153,-0.04028413072228432,0.0,0.0,0.0,0.0,0
20953.951,-0.0015520850429311395,0.0024613027926534414,0.9983372092247009,-0.031236793845891953,0.1435183882713318,0.14436161518096924,82.36505889892578,35.67308807373047,1006.16748046875,0.04629679396748543,-0.09375163912773132,-0.039705973118543625,0.0,0.0,0.0,0.0,0
20957.961,-0.0013615458738058805,0.0019387674983590841,0.998260498046875,-0.02206297032535076,0.2603556215763092,-0.20579732954502106,82.36505889892578,35.67308807373047,1006.16748046875,0.04631137102842331,-0.09476662427186966,-0.04052814841270447,0.0,0.0,0.0,0.0,0
20961.878,-0.0012882286682724953,0.001327428501099348,0.9996861219406128,-0.0600043423473835,0.2367330938577652,-0.22563667595386505,82.3213119506836,35.67618942260742,1006.1729736328125,0.04611817002296448,-0.09567909687757492,-0.04142984747886658,0.0,0.0,0.0,0.0,0
20965.842,-0.0007987275021150708,0.0015529533848166466,1.0011324882507324,0.00944520253688097,0.1459846794605255,-0.043062955141067505,82.3213119506836,35.67618942260742,1006.1729736328125,0.04622459411621094,-0.09618327021598816,-0.0416015200316906,0.0,0.0,0.0,0.0,0
20969.838,-0.001827088650316,0.0013657142408192158,1.0005371570587158,-0.19260194897651672,0.19975076615810394,0.3120223581790924,82.3213119506836,35.67618942260742,1006.1729736328125,0.04550813511013985,-0.09699305891990662,-0.04035269469022751,0.0,0.0,0.0,0.0,0
20973.769,-0.002564280526712537,0.00011520898260641843,1.0002493858337402,-0.01535105425864458,0.09961489588022232,-0.12379128485918045,82.3213119506836,35.67618942260742,1006.1729736328125,0.04538525268435478,-0.09747051447629929,-0.04084765166044235,0.0,0.0,0.0,0.0,0
20977.78,-0.0019457008456811309,0.0005489763570949435,0.999983549118042,0.25276806950569153,-0.2074861079454422,-0.28264951705932617,82.3213119506836,35.67618942260742,1006.1729736328125,0.0463733933866024,-0.09666747599840164,-0.041978951543569565,0.0,0.0,0.0,0.0,0
20981.697,-0.0015064117033034563,0.0016248052706941962,0.9999948740005493,0.17186228930950165,-0.0028965123929083347,-0.22171495854854584,82.37599182128906,35.67518615722656,1006.166748046875,0.047134559601545334,-0.09664133936166763,-0.04286569729447365,0.0,0.0,0.0,0.0,0
20985.66,-0.0011625108309090137,0.001447318703867495,1.0001734495162964,-0.01983087696135044,0.07030763477087021,-0.11580688506364822,82.37599182128906,35.67518615722656,1006.166748046875,0.047112300992012024,-0.09687557071447372,-0.04332859069108963,0.0,0.0,0.0,0.0,0
20989.667,-0.001196542289108038,0.0012486651539802551,1.0002572536468506,-0.12219102680683136,-0.13871511816978455,0.10938020795583725,82.37599182128906,35.67518615722656,1006.166748046875,0.04666409641504288,-0.09627848863601685,-0.04289145767688751,0.0,0.0,0.0,0.0,0
20993.588,-0.00046595846652053297,0.0008210848900489509,0.9987443089485168,0.10509510338306427,-0.126743346452713,0.08514814078807831,82.37599182128906,35.67518615722656,1006.166748046875,0.047086842358112335,-0.09566405415534973,-0.042551279067993164,0.0,0.0,0.0,0.0,0
20997.598,0.00011772565630963072,0.0005466650472953916,0.9979450702667236,0.043721117079257965,-0.1957152634859085,-0.14469775557518005,82.37599182128906,35.67518615722656,1006.166748046875,0.04723694175481796,-0.09472344815731049,-0.04313075169920921,0.0,0.0,0.0,0.0,0
21001.515,0.00017562037101015449,0.0010019562905654311,0.999276340007782,0.08303731679916382,-0.0363575704395771,0.014243453741073608,82.3486557006836,35.6755485534668,1006.1697998046875,0.04758647084236145,-0.0944138765335083,-0.0430738739669323,0.0,0.0,0.0,0.0,0
21005.479,-0.0004387778171803802,0.001980684231966734,0.9999107122421265,0.049627456814050674,0.00828616600483656,-0.07131370902061462,82.3486557006836,35.6755485534668,1006.1697998046875,0.047890160232782364,-0.09433870017528534,-0.04335892200469971,0.0,0.0,0.0,0.0,0
21009.475,-0.0019516084576025605,0.0023482004180550575,0.99991774559021,0.01477969903498888,0.13867898285388947,0.2349209189414978,82.3486557006836,35.6755485534668,1006.1697998046875,0.048089414834976196,-0.09491948783397675,-0.04241854324936867,0.0,0.0,0.0,0.0,0
21013.406,-0.0035947749856859446,0.0019413678674027324,0.9997879862785339,0.23103995621204376,-0.2506287693977356,0.3940381705760956,82.3486557006836,35.6755485534668,1006.1697998046875,0.04911747947335243,-0.09409577399492264,-0.040843069553375244,0.0,0.0,0.0,0.0,0
21017.424,-0.004801975563168526,0.0014502075500786304,0.9992166757583618,0.021266013383865356,-0.11513219028711319,0.2846439778804779,82.3486557006836,35.6755485534668,1006.1697998046875,0.049259502440690994,-0.09392352402210236,-0.03970479220151901,0.0,0.0,0.0,0.0,0
21021.334,-0.005062324460595846,0.0009315517963841558,0.9986999034881592,0.11157409846782684,0.10967986285686493,-0.03076554276049137,82.3049087524414,35.67582702636719,1006.174560546875,0.049713313579559326,-0.09467267245054245,-0.039827462285757065,0.0,0.0,0.0,0.0,0
